[{"avg_drive_time":3466,"driven_distance":64059,"linear_distance":54.1119906719419,"from":{"name":"St. Pölten","lat":48.1982,"long":15.6431},"to":{"name":"Wien","lat":48.2083,"long":16.3731},"src_address_line":"Dr. Otto Tschadek-Straße 42, 3100 St. Pölten, Austria","dest_address_line":"Stephansplatz 1/٣٠, 1010 Wien, Austria"},{"avg_drive_time":9368,"driven_distance":249523,"linear_distance":125.8205770188646,"from":{"name":"St. Pölten","lat":48.1982,"long":15.6431},"to":{"name":"Graz","lat":47.0749,"long":15.4409},"src_address_line":"Dr. Otto Tschadek-Straße 42, 3100 St. Pölten, Austria","dest_address_line":"Sauraugasse 6, 8010 Graz, Austria"},{"avg_drive_time":4359,"driven_distance":126613,"linear_distance":101.31793029378075,"from":{"name":"St. Pölten","lat":48.1982,"long":15.6431},"to":{"name":"Linz","lat":48.3,"long":14.2833},"src_address_line":"Dr. Otto Tschadek-Straße 42, 3100 St. Pölten, Austria","dest_address_line":"Hopfengasse 7a, 4020 Linz, Austria"},{"avg_drive_time":8837,"driven_distance":243516,"linear_distance":198.18669084827647,"from":{"name":"St. Pölten","lat":48.1982,"long":15.6431},"to":{"name":"Salzburg","lat":47.7972,"long":13.0477},"src_address_line":"Dr. Otto Tschadek-Straße 42, 3100 St. Pölten, Austria","dest_address_line":"Kapitelgasse 4, 5020 Salzburg, Austria"},{"avg_drive_time":15240,"driven_distance":424655,"linear_distance":334.1765925816624,"from":{"name":"St. Pölten","lat":48.1982,"long":15.6431},"to":{"name":"Innsbruck","lat":47.2683,"long":11.3933},"src_address_line":"Dr. Otto Tschadek-Straße 42, 3100 St. Pölten, Austria","dest_address_line":"Herzog-Friedrich-Straße 21, 6020 Innsbruck, Austria"},{"avg_drive_time":13580,"driven_distance":384885,"linear_distance":202.82436700789287,"from":{"name":"St. Pölten","lat":48.1982,"long":15.6431},"to":{"name":"Klagenfurt","lat":46.6167,"long":14.3},"src_address_line":"Dr. Otto Tschadek-Straße 42, 3100 St. Pölten, Austria","dest_address_line":"Ankershofenstraße 9, 9020 Klagenfurt am Wörthersee, Austria"},{"avg_drive_time":19223,"driven_distance":539501,"linear_distance":446.3756577527841,"from":{"name":"St. Pölten","lat":48.1982,"long":15.6431},"to":{"name":"Bregenz","lat":47.505,"long":9.7492},"src_address_line":"Dr. Otto Tschadek-Straße 42, 3100 St. Pölten, Austria","dest_address_line":"Anton-Schneider-Straße 32, 6900 Bregenz, Austria"},{"avg_drive_time":4224,"driven_distance":108803,"linear_distance":76.02442148115281,"from":{"name":"St. Pölten","lat":48.1982,"long":15.6431},"to":{"name":"Eisenstadt","lat":47.8456,"long":16.5189},"src_address_line":"Dr. Otto Tschadek-Straße 42, 3100 St. Pölten, Austria","dest_address_line":"Esterhazypl. 2, 7000 Eisenstadt, Austria"}]