[{"avg_drive_time":7927,"driven_distance":199975,"linear_distance":144.08313739153107,"from":{"name":"Graz","lat":47.0749,"long":15.4409},"to":{"name":"Wien","lat":48.2083,"long":16.3731},"src_address_line":"Sauraugasse 6, 8010 Graz, Austria","dest_address_line":"Stephansplatz 1/٣٠, 1010 Wien, Austria"},{"avg_drive_time":8295,"driven_distance":218130,"linear_distance":161.44372126553063,"from":{"name":"Graz","lat":47.0749,"long":15.4409},"to":{"name":"Linz","lat":48.3,"long":14.2833},"src_address_line":"Sauraugasse 6, 8010 Graz, Austria","dest_address_line":"Hopfengasse 7a, 4020 Linz, Austria"},{"avg_drive_time":10996,"driven_distance":280864,"linear_distance":197.09551763499917,"from":{"name":"Graz","lat":47.0749,"long":15.4409},"to":{"name":"Salzburg","lat":47.7972,"long":13.0477},"src_address_line":"Sauraugasse 6, 8010 Graz, Austria","dest_address_line":"Kapitelgasse 4, 5020 Salzburg, Austria"},{"avg_drive_time":17398,"driven_distance":462003,"linear_distance":306.68159307243167,"from":{"name":"Graz","lat":47.0749,"long":15.4409},"to":{"name":"Innsbruck","lat":47.2683,"long":11.3933},"src_address_line":"Sauraugasse 6, 8010 Graz, Austria","dest_address_line":"Herzog-Friedrich-Straße 21, 6020 Innsbruck, Austria"},{"avg_drive_time":6273,"driven_distance":152091,"linear_distance":100.62031945585699,"from":{"name":"Graz","lat":47.0749,"long":15.4409},"to":{"name":"Klagenfurt","lat":46.6167,"long":14.3},"src_address_line":"Sauraugasse 6, 8010 Graz, Austria","dest_address_line":"Ankershofenstraße 9, 9020 Klagenfurt am Wörthersee, Austria"},{"avg_drive_time":21923,"driven_distance":599056,"linear_distance":431.8373287283554,"from":{"name":"Graz","lat":47.0749,"long":15.4409},"to":{"name":"Bregenz","lat":47.505,"long":9.7492},"src_address_line":"Sauraugasse 6, 8010 Graz, Austria","dest_address_line":"Anton-Schneider-Straße 32, 6900 Bregenz, Austria"},{"avg_drive_time":6638,"driven_distance":172443,"linear_distance":117.94723651053854,"from":{"name":"Graz","lat":47.0749,"long":15.4409},"to":{"name":"Eisenstadt","lat":47.8456,"long":16.5189},"src_address_line":"Sauraugasse 6, 8010 Graz, Austria","dest_address_line":"Esterhazypl. 2, 7000 Eisenstadt, Austria"},{"avg_drive_time":9229,"driven_distance":249300,"linear_distance":125.8205770188646,"from":{"name":"Graz","lat":47.0749,"long":15.4409},"to":{"name":"St. Pölten","lat":48.1982,"long":15.6431},"src_address_line":"Sauraugasse 6, 8010 Graz, Austria","dest_address_line":"Dr. Otto Tschadek-Straße 42, 3100 St. Pölten, Austria"}]