[{"avg_drive_time":11731,"driven_distance":298831,"linear_distance":251.57585406985712,"from":{"name":"Salzburg","lat":47.7972,"long":13.0477},"to":{"name":"Wien","lat":48.2083,"long":16.3731},"src_address_line":"Kapitelgasse 4, 5020 Salzburg, Austria","dest_address_line":"Stephansplatz 1/٣٠, 1010 Wien, Austria"},{"avg_drive_time":10916,"driven_distance":279806,"linear_distance":197.09551763499917,"from":{"name":"Salzburg","lat":47.7972,"long":13.0477},"to":{"name":"Graz","lat":47.0749,"long":15.4409},"src_address_line":"Kapitelgasse 4, 5020 Salzburg, Austria","dest_address_line":"Sauraugasse 6, 8010 Graz, Austria"},{"avg_drive_time":5428,"driven_distance":134852,"linear_distance":107.52303799791754,"from":{"name":"Salzburg","lat":47.7972,"long":13.0477},"to":{"name":"Linz","lat":48.3,"long":14.2833},"src_address_line":"Kapitelgasse 4, 5020 Salzburg, Austria","dest_address_line":"Hopfengasse 7a, 4020 Linz, Austria"},{"avg_drive_time":8169,"driven_distance":193150,"linear_distance":137.42065998922314,"from":{"name":"Salzburg","lat":47.7972,"long":13.0477},"to":{"name":"Innsbruck","lat":47.2683,"long":11.3933},"src_address_line":"Kapitelgasse 4, 5020 Salzburg, Austria","dest_address_line":"Herzog-Friedrich-Straße 21, 6020 Innsbruck, Austria"},{"avg_drive_time":8354,"driven_distance":216385,"linear_distance":161.79645033603634,"from":{"name":"Salzburg","lat":47.7972,"long":13.0477},"to":{"name":"Klagenfurt","lat":46.6167,"long":14.3},"src_address_line":"Kapitelgasse 4, 5020 Salzburg, Austria","dest_address_line":"Ankershofenstraße 9, 9020 Klagenfurt am Wörthersee, Austria"},{"avg_drive_time":12693,"driven_distance":330204,"linear_distance":249.18406019275375,"from":{"name":"Salzburg","lat":47.7972,"long":13.0477},"to":{"name":"Bregenz","lat":47.505,"long":9.7492},"src_address_line":"Kapitelgasse 4, 5020 Salzburg, Austria","dest_address_line":"Anton-Schneider-Straße 32, 6900 Bregenz, Austria"},{"avg_drive_time":12489,"driven_distance":343575,"linear_distance":259.19785704005375,"from":{"name":"Salzburg","lat":47.7972,"long":13.0477},"to":{"name":"Eisenstadt","lat":47.8456,"long":16.5189},"src_address_line":"Kapitelgasse 4, 5020 Salzburg, Austria","dest_address_line":"Esterhazypl. 2, 7000 Eisenstadt, Austria"},{"avg_drive_time":8798,"driven_distance":243628,"linear_distance":198.18669084827644,"from":{"name":"Salzburg","lat":47.7972,"long":13.0477},"to":{"name":"St. Pölten","lat":48.1982,"long":15.6431},"src_address_line":"Kapitelgasse 4, 5020 Salzburg, Austria","dest_address_line":"Dr. Otto Tschadek-Straße 42, 3100 St. Pölten, Austria"}]